{
  "type": "FeatureCollection",
  "features": [
    {
      "type": "Feature",
      "properties": {
        "Name": "The Pioneer",
        "Address": "2401 South University Boulevard, Denver, CO, 80210",
        "Website": "http://www.thepioneerbar.com",
        "Type": "Mexican"
      },
      "geometry": {
        "type": "Point",
        "coordinates": [
          -104.95981693267822,
          39.672800591141126
        ]
      }
    },
    {
      "type": "Feature",
      "properties": {
        "Name": "Chipotle",
        "Address": "1644 East Evans Avenue Denver, CO, 80201",
        "Website": "http://www.chipotle.com",
        "Type": "Mexican"
      },
      "geometry": {
        "type": "Point",
        "coordinates": [
          -104.96776700019836,
          39.678324981673
        ]
      }
    },
    {
      "type": "Feature",
      "properties": {
        "Name": "Illegal Pete's",
        "Address": "1744 East Evans Avenue Denver, CO, 80210",
        "Website": "http://www.illegalpetes.com",
        "Type": "Mexican"
      },
      "geometry": {
        "type": "Point",
        "coordinates": [
          -104.96666193008423,
          39.67830020960751
        ]
      }
    },
    {
      "type": "Feature",
      "properties": {
        "Name": "Wendy's",
        "Address": "2485 S University Blvd Denver, CO 80210",
        "Website": "http://www.wendys.com",
        "Type": "Fast Food"
      },
      "geometry": {
        "type": "Point",
        "coordinates": [
          -104.95972573757172,
          39.67178484793644
        ]
      }
    },
    {
      "type": "Feature",
      "properties": {
        "Name": "Jerusalem Restaurant",
        "Address": "1890 E Evans Ave Denver, CO 80210",
        "Website": "http://www.jerusalemrestaurant.com",
        "Type": "Middle Eastern"
      },
      "geometry": {
        "type": "Point",
        "coordinates": [
          -104.9653959274292,
          39.67831259564137
        ]
      }
    }
  ]
}